[
  {
    "stop_id": "1164S",
    "stop_code": "",
    "stop_name": "Retiro",
    "stop_desc": "",
    "stop_lat": "-34.59210278",
    "stop_lon": "-58.37609722",
    "zone_id": "4",
    "stop_url": "",
    "location_type": "0",
    "parent_station": "1164",
    "wheelchair_boarding": "1"
  },
  {
    "stop_id": "1165N",
    "stop_code": "",
    "stop_name": "Catalinas",
    "stop_desc": "",
    "stop_lat": "-34.59655556",
    "stop_lon": "-58.37205278",
    "zone_id": "4",
    "stop_url": "",
    "location_type": "0",
    "parent_station": "1165",
    "wheelchair_boarding": "1"
  },
  {
    "stop_id": "1165S",
    "stop_code": "",
    "stop_name": "Catalinas",
    "stop_desc": "",
    "stop_lat": "-34.59646111",
    "stop_lon": "-58.37195",
    "zone_id": "4",
    "stop_url": "",
    "location_type": "0",
    "parent_station": "1165",
    "wheelchair_boarding": "1"
  },
  {
    "stop_id": "1166N",
    "stop_code": "",
    "stop_name": "Correo Central",
    "stop_desc": "",
    "stop_lat": "-34.60362222",
    "stop_lon": "-58.37019444",
    "zone_id": "4",
    "stop_url": "",
    "location_type": "0",
    "parent_station": "1166",
    "wheelchair_boarding": "1"
  },
  {
    "stop_id": "1166S",
    "stop_code": "",
    "stop_name": "Correo Central",
    "stop_desc": "",
    "stop_lat": "-34.60342778",
    "stop_lon": "-58.37005833",
    "zone_id": "4",
    "stop_url": "",
    "location_type": "0",
    "parent_station": "1166",
    "wheelchair_boarding": "1"
  },
  {
    "stop_id": "1164N",
    "stop_code": "",
    "stop_name": "Retiro",
    "stop_desc": "",
    "stop_lat": "-34.59219722",
    "stop_lon": "-58.37619167",
    "zone_id": "4",
    "stop_url": "",
    "location_type": "0",
    "parent_station": "1164",
    "wheelchair_boarding": "1"
  },
  {
    "stop_id": "1059N",
    "stop_code": "",
    "stop_name": "San Pedrito",
    "stop_desc": "",
    "stop_lat": "-34.630922591443",
    "stop_lon": "-58.470433205504",
    "zone_id": "4",
    "stop_url": "",
    "location_type": "0",
    "parent_station": "1059",
    "wheelchair_boarding": "1"
  },
  {
    "stop_id": "1059S",
    "stop_code": "",
    "stop_name": "San Pedrito",
    "stop_desc": "",
    "stop_lat": "-34.630922591443",
    "stop_lon": "-58.470433205504",
    "zone_id": "4",
    "stop_url": "",
    "location_type": "0",
    "parent_station": "1059",
    "wheelchair_boarding": "1"
  },
  {
    "stop_id": "1060N",
    "stop_code": "",
    "stop_name": "San Jose de Flores",
    "stop_desc": "",
    "stop_lat": "-34.629054501979",
    "stop_lon": "-58.463536343831",
    "zone_id": "4",
    "stop_url": "",
    "location_type": "0",
    "parent_station": "1060",
    "wheelchair_boarding": "1"
  },
  {
    "stop_id": "1060S",
    "stop_code": "",
    "stop_name": "San Jose de Flores",
    "stop_desc": "",
    "stop_lat": "-34.629054501979",
    "stop_lon": "-58.463536343831",
    "zone_id": "4",
    "stop_url": "",
    "location_type": "0",
    "parent_station": "1060",
    "wheelchair_boarding": "1"
  },
  {
    "stop_id": "1061N",
    "stop_code": "",
    "stop_name": "Carabobo",
    "stop_desc": "",
    "stop_lat": "-34.626422392738",
    "stop_lon": "-58.456044495010",
    "zone_id": "4",
    "stop_url": "",
    "location_type": "0",
    "parent_station": "1061",
    "wheelchair_boarding": "1"
  },
  {
    "stop_id": "1061S",
    "stop_code": "",
    "stop_name": "Carabobo",
    "stop_desc": "",
    "stop_lat": "-34.626422392738",
    "stop_lon": "-58.456044495010",
    "zone_id": "4",
    "stop_url": "",
    "location_type": "0",
    "parent_station": "1061",
    "wheelchair_boarding": "1"
  },
  {
    "stop_id": "1062N",
    "stop_code": "",
    "stop_name": "Puan",
    "stop_desc": "",
    "stop_lat": "-34.623571847053",
    "stop_lon": "-58.448787778687",
    "zone_id": "4",
    "stop_url": "",
    "location_type": "0",
    "parent_station": "1062",
    "wheelchair_boarding": "1"
  },
  {
    "stop_id": "1062S",
    "stop_code": "",
    "stop_name": "Puan",
    "stop_desc": "",
    "stop_lat": "-34.623571847053",
    "stop_lon": "-58.448787778687",
    "zone_id": "4",
    "stop_url": "",
    "location_type": "0",
    "parent_station": "1062",
    "wheelchair_boarding": "1"
  },
  {
    "stop_id": "1063N",
    "stop_code": "",
    "stop_name": "Primera Junta",
    "stop_desc": "",
    "stop_lat": "-34.620460192436",
    "stop_lon": "-58.441400975016",
    "zone_id": "4",
    "stop_url": "",
    "location_type": "0",
    "parent_station": "1063",
    "wheelchair_boarding": "2"
  },
  {
    "stop_id": "1063S",
    "stop_code": "",
    "stop_name": "Primera Junta",
    "stop_desc": "",
    "stop_lat": "-34.620460192436",
    "stop_lon": "-58.441400975016",
    "zone_id": "4",
    "stop_url": "",
    "location_type": "0",
    "parent_station": "1063",
    "wheelchair_boarding": "1"
  },
  {
    "stop_id": "1064N",
    "stop_code": "",
    "stop_name": "Acoyte",
    "stop_desc": "",
    "stop_lat": "-34.618036012360",
    "stop_lon": "-58.435862213379",
    "zone_id": "4",
    "stop_url": "",
    "location_type": "0",
    "parent_station": "1064",
    "wheelchair_boarding": "1"
  },
  {
    "stop_id": "1064S",
    "stop_code": "",
    "stop_name": "Acoyte",
    "stop_desc": "",
    "stop_lat": "-34.618036012360",
    "stop_lon": "-58.435862213379",
    "zone_id": "4",
    "stop_url": "",
    "location_type": "0",
    "parent_station": "1064",
    "wheelchair_boarding": "1"
  },
  {
    "stop_id": "1065N",
    "stop_code": "",
    "stop_name": "Rio de Janeiro",
    "stop_desc": "",
    "stop_lat": "-34.615111439413",
    "stop_lon": "-58.429285879212",
    "zone_id": "4",
    "stop_url": "",
    "location_type": "0",
    "parent_station": "1065",
    "wheelchair_boarding": "2"
  },
  {
    "stop_id": "1065S",
    "stop_code": "",
    "stop_name": "Rio de Janeiro",
    "stop_desc": "",
    "stop_lat": "-34.615111439413",
    "stop_lon": "-58.429285879212",
    "zone_id": "4",
    "stop_url": "",
    "location_type": "0",
    "parent_station": "1065",
    "wheelchair_boarding": "2"
  },
  {
    "stop_id": "1066N",
    "stop_code": "",
    "stop_name": "Castro Barros",
    "stop_desc": "",
    "stop_lat": "-34.611763606902",
    "stop_lon": "-58.421728313005",
    "zone_id": "4",
    "stop_url": "",
    "location_type": "0",
    "parent_station": "1066",
    "wheelchair_boarding": "2"
  },
  {
    "stop_id": "1066S",
    "stop_code": "",
    "stop_name": "Castro Barros",
    "stop_desc": "",
    "stop_lat": "-34.611763606902",
    "stop_lon": "-58.421728313005",
    "zone_id": "4",
    "stop_url": "",
    "location_type": "0",
    "parent_station": "1066",
    "wheelchair_boarding": "1"
  },
  {
    "stop_id": "1067N",
    "stop_code": "",
    "stop_name": "Loria",
    "stop_desc": "",
    "stop_lat": "-34.610811060554",
    "stop_lon": "-58.415152877453",
    "zone_id": "4",
    "stop_url": "",
    "location_type": "0",
    "parent_station": "1067",
    "wheelchair_boarding": "1"
  },
  {
    "stop_id": "1067S",
    "stop_code": "",
    "stop_name": "Loria",
    "stop_desc": "",
    "stop_lat": "-34.610811060554",
    "stop_lon": "-58.415152877453",
    "zone_id": "4",
    "stop_url": "",
    "location_type": "0",
    "parent_station": "1067",
    "wheelchair_boarding": "2"
  },
  {
    "stop_id": "1068N",
    "stop_code": "",
    "stop_name": "Plaza Miserere",
    "stop_desc": "",
    "stop_lat": "-34.609688",
    "stop_lon": "-58.406813889700",
    "zone_id": "4",
    "stop_url": "",
    "location_type": "0",
    "parent_station": "1068",
    "wheelchair_boarding": "1"
  },
  {
    "stop_id": "1068S",
    "stop_code": "",
    "stop_name": "Plaza Miserere",
    "stop_desc": "",
    "stop_lat": "-34.609688",
    "stop_lon": "-58.406813889700",
    "zone_id": "4",
    "stop_url": "",
    "location_type": "0",
    "parent_station": "1068",
    "wheelchair_boarding": "2"
  },
  {
    "stop_id": "1069S",
    "stop_code": "",
    "stop_name": "Alberti",
    "stop_desc": "",
    "stop_lat": "-34.609832012885",
    "stop_lon": "-58.400719910883",
    "zone_id": "4",
    "stop_url": "",
    "location_type": "0",
    "parent_station": "1069",
    "wheelchair_boarding": "2"
  },
  {
    "stop_id": "1070N",
    "stop_code": "",
    "stop_name": "Pasco",
    "stop_desc": "",
    "stop_lat": "-34.609664444429",
    "stop_lon": "-58.398340314029",
    "zone_id": "4",
    "stop_url": "",
    "location_type": "0",
    "parent_station": "1070",
    "wheelchair_boarding": "2"
  },
  {
    "stop_id": "1071N",
    "stop_code": "",
    "stop_name": "Congreso",
    "stop_desc": "",
    "stop_lat": "-34.609241487037",
    "stop_lon": "-58.392670601487",
    "zone_id": "4",
    "stop_url": "",
    "location_type": "0",
    "parent_station": "1071",
    "wheelchair_boarding": "1"
  },
  {
    "stop_id": "1071S",
    "stop_code": "",
    "stop_name": "Congreso",
    "stop_desc": "",
    "stop_lat": "-34.609241487037",
    "stop_lon": "-58.392670601487",
    "zone_id": "4",
    "stop_url": "",
    "location_type": "0",
    "parent_station": "1071",
    "wheelchair_boarding": "1"
  },
  {
    "stop_id": "1072N",
    "stop_code": "",
    "stop_name": "Saenz Pe単a",
    "stop_desc": "",
    "stop_lat": "-34.609416989391",
    "stop_lon": "-58.386668153102",
    "zone_id": "4",
    "stop_url": "",
    "location_type": "0",
    "parent_station": "1072",
    "wheelchair_boarding": "2"
  },
  {
    "stop_id": "1072S",
    "stop_code": "",
    "stop_name": "Saenz Pe単a",
    "stop_desc": "",
    "stop_lat": "-34.609416989391",
    "stop_lon": "-58.386668153102",
    "zone_id": "4",
    "stop_url": "",
    "location_type": "0",
    "parent_station": "1072",
    "wheelchair_boarding": "2"
  },
  {
    "stop_id": "1073N",
    "stop_code": "",
    "stop_name": "Lima",
    "stop_desc": "",
    "stop_lat": "-34.609105721538",
    "stop_lon": "-58.382521122784",
    "zone_id": "4",
    "stop_url": "",
    "location_type": "0",
    "parent_station": "1073",
    "wheelchair_boarding": "2"
  },
  {
    "stop_id": "1073S",
    "stop_code": "",
    "stop_name": "Lima",
    "stop_desc": "",
    "stop_lat": "-34.609105721538",
    "stop_lon": "-58.382521122784",
    "zone_id": "4",
    "stop_url": "",
    "location_type": "0",
    "parent_station": "1073",
    "wheelchair_boarding": "2"
  },
  {
    "stop_id": "1074N",
    "stop_code": "",
    "stop_name": "Piedras",
    "stop_desc": "",
    "stop_lat": "-34.608837932068",
    "stop_lon": "-58.378502407734",
    "zone_id": "4",
    "stop_url": "",
    "location_type": "0",
    "parent_station": "1074",
    "wheelchair_boarding": "2"
  },
  {
    "stop_id": "1074S",
    "stop_code": "",
    "stop_name": "Piedras",
    "stop_desc": "",
    "stop_lat": "-34.608837932068",
    "stop_lon": "-58.378502407734",
    "zone_id": "4",
    "stop_url": "",
    "location_type": "0",
    "parent_station": "1074",
    "wheelchair_boarding": "2"
  },
  {
    "stop_id": "1075N",
    "stop_code": "",
    "stop_name": "Peru",
    "stop_desc": "",
    "stop_lat": "-34.608559343180",
    "stop_lon": "-58.374563008418",
    "zone_id": "4",
    "stop_url": "",
    "location_type": "0",
    "parent_station": "1075",
    "wheelchair_boarding": "0"
  },
  {
    "stop_id": "1075S",
    "stop_code": "",
    "stop_name": "Peru",
    "stop_desc": "",
    "stop_lat": "-34.608559343180",
    "stop_lon": "-58.374563008418",
    "zone_id": "4",
    "stop_url": "",
    "location_type": "0",
    "parent_station": "1075",
    "wheelchair_boarding": "0"
  },
  {
    "stop_id": "1076N",
    "stop_code": "",
    "stop_name": "Plaza de Mayo",
    "stop_desc": "",
    "stop_lat": "-34.608695109514",
    "stop_lon": "-58.371493220293",
    "zone_id": "4",
    "stop_url": "",
    "location_type": "0",
    "parent_station": "1076",
    "wheelchair_boarding": "1"
  },
  {
    "stop_id": "1076S",
    "stop_code": "",
    "stop_name": "Plaza de Mayo",
    "stop_desc": "",
    "stop_lat": "-34.608695109514",
    "stop_lon": "-58.371493220293",
    "zone_id": "4",
    "stop_url": "",
    "location_type": "0",
    "parent_station": "1076",
    "wheelchair_boarding": "1"
  },
  {
    "stop_id": "1077N",
    "stop_code": "",
    "stop_name": "Juan Manuel de Rosas",
    "stop_desc": "",
    "stop_lat": "-34.574011003989",
    "stop_lon": "-58.486718237493",
    "zone_id": "4",
    "stop_url": "",
    "location_type": "0",
    "parent_station": "1077",
    "wheelchair_boarding": "1"
  },
  {
    "stop_id": "1077S",
    "stop_code": "",
    "stop_name": "Juan Manuel de Rosas",
    "stop_desc": "",
    "stop_lat": "-34.574011003989",
    "stop_lon": "-58.486718237493",
    "zone_id": "4",
    "stop_url": "",
    "location_type": "0",
    "parent_station": "1077",
    "wheelchair_boarding": "1"
  },
  {
    "stop_id": "1078N",
    "stop_code": "",
    "stop_name": "Echeverria",
    "stop_desc": "",
    "stop_lat": "-34.577998380396",
    "stop_lon": "-58.480763733193",
    "zone_id": "4",
    "stop_url": "",
    "location_type": "0",
    "parent_station": "1078",
    "wheelchair_boarding": "1"
  },
  {
    "stop_id": "1078S",
    "stop_code": "",
    "stop_name": "Echeverria",
    "stop_desc": "",
    "stop_lat": "-34.577998380396",
    "stop_lon": "-58.480763733193",
    "zone_id": "4",
    "stop_url": "",
    "location_type": "0",
    "parent_station": "1078",
    "wheelchair_boarding": "1"
  },
  {
    "stop_id": "1079N",
    "stop_code": "",
    "stop_name": "De Los Incas - Parque Chas",
    "stop_desc": "",
    "stop_lat": "-34.581941400922",
    "stop_lon": "-58.472949117288",
    "zone_id": "4",
    "stop_url": "",
    "location_type": "0",
    "parent_station": "1079",
    "wheelchair_boarding": "1"
  },
  {
    "stop_id": "1079S",
    "stop_code": "",
    "stop_name": "De Los Incas - Parque Chas",
    "stop_desc": "",
    "stop_lat": "-34.581941400922",
    "stop_lon": "-58.472949117288",
    "zone_id": "4",
    "stop_url": "",
    "location_type": "0",
    "parent_station": "1079",
    "wheelchair_boarding": "1"
  },
  {
    "stop_id": "1080N",
    "stop_code": "",
    "stop_name": "Tronador - Villa Ortuzar",
    "stop_desc": "",
    "stop_lat": "-34.584319159038",
    "stop_lon": "-58.465676307586",
    "zone_id": "4",
    "stop_url": "",
    "location_type": "0",
    "parent_station": "1080",
    "wheelchair_boarding": "1"
  },
  {
    "stop_id": "1080S",
    "stop_code": "",
    "stop_name": "Tronador - Villa Ortuzar",
    "stop_desc": "",
    "stop_lat": "-34.584319159038",
    "stop_lon": "-58.465676307586",
    "zone_id": "4",
    "stop_url": "",
    "location_type": "0",
    "parent_station": "1080",
    "wheelchair_boarding": "1"
  },
  {
    "stop_id": "1081N",
    "stop_code": "",
    "stop_name": "Federico Lacroze",
    "stop_desc": "",
    "stop_lat": "-34.587565207891",
    "stop_lon": "-58.454097211372",
    "zone_id": "4",
    "stop_url": "",
    "location_type": "0",
    "parent_station": "1081",
    "wheelchair_boarding": "2"
  },
  {
    "stop_id": "1081S",
    "stop_code": "",
    "stop_name": "Federico Lacroze",
    "stop_desc": "",
    "stop_lat": "-34.587565207891",
    "stop_lon": "-58.454097211372",
    "zone_id": "4",
    "stop_url": "",
    "location_type": "0",
    "parent_station": "1081",
    "wheelchair_boarding": "2"
  },
  {
    "stop_id": "1082N",
    "stop_code": "",
    "stop_name": "Dorrego",
    "stop_desc": "",
    "stop_lat": "-34.591692697391",
    "stop_lon": "-58.447618335534",
    "zone_id": "4",
    "stop_url": "",
    "location_type": "0",
    "parent_station": "1082",
    "wheelchair_boarding": "2"
  },
  {
    "stop_id": "1082S",
    "stop_code": "",
    "stop_name": "Dorrego",
    "stop_desc": "",
    "stop_lat": "-34.591692697391",
    "stop_lon": "-58.447618335534",
    "zone_id": "4",
    "stop_url": "",
    "location_type": "0",
    "parent_station": "1082",
    "wheelchair_boarding": "2"
  },
  {
    "stop_id": "1083N",
    "stop_code": "",
    "stop_name": "Angel Gallardo",
    "stop_desc": "",
    "stop_lat": "-34.602156515827",
    "stop_lon": "-58.431022167144",
    "zone_id": "4",
    "stop_url": "",
    "location_type": "0",
    "parent_station": "1083",
    "wheelchair_boarding": "2"
  },
  {
    "stop_id": "1083S",
    "stop_code": "",
    "stop_name": "Angel Gallardo",
    "stop_desc": "",
    "stop_lat": "-34.602156515827",
    "stop_lon": "-58.431022167144",
    "zone_id": "4",
    "stop_url": "",
    "location_type": "0",
    "parent_station": "1083",
    "wheelchair_boarding": "2"
  },
  {
    "stop_id": "1084N",
    "stop_code": "",
    "stop_name": "Malabia",
    "stop_desc": "",
    "stop_lat": "-34.599048472974",
    "stop_lon": "-58.439674973441",
    "zone_id": "4",
    "stop_url": "",
    "location_type": "0",
    "parent_station": "1084",
    "wheelchair_boarding": "2"
  },
  {
    "stop_id": "1084S",
    "stop_code": "",
    "stop_name": "Malabia",
    "stop_desc": "",
    "stop_lat": "-34.599048472974",
    "stop_lon": "-58.439674973441",
    "zone_id": "4",
    "stop_url": "",
    "location_type": "0",
    "parent_station": "1084",
    "wheelchair_boarding": "2"
  },
  {
    "stop_id": "1085N",
    "stop_code": "",
    "stop_name": "Medrano",
    "stop_desc": "",
    "stop_lat": "-34.603139517524",
    "stop_lon": "-58.421303182836",
    "zone_id": "4",
    "stop_url": "",
    "location_type": "0",
    "parent_station": "1085",
    "wheelchair_boarding": "2"
  },
  {
    "stop_id": "1085S",
    "stop_code": "",
    "stop_name": "Medrano",
    "stop_desc": "",
    "stop_lat": "-34.603139517524",
    "stop_lon": "-58.421303182836",
    "zone_id": "4",
    "stop_url": "",
    "location_type": "0",
    "parent_station": "1085",
    "wheelchair_boarding": "2"
  },
  {
    "stop_id": "1086N",
    "stop_code": "",
    "stop_name": "Carlos Gardel",
    "stop_desc": "",
    "stop_lat": "-34.604103190729",
    "stop_lon": "-58.411704897892",
    "zone_id": "4",
    "stop_url": "",
    "location_type": "0",
    "parent_station": "1086",
    "wheelchair_boarding": "2"
  },
  {
    "stop_id": "1086S",
    "stop_code": "",
    "stop_name": "Carlos Gardel",
    "stop_desc": "",
    "stop_lat": "-34.604103190729",
    "stop_lon": "-58.411704897892",
    "zone_id": "4",
    "stop_url": "",
    "location_type": "0",
    "parent_station": "1086",
    "wheelchair_boarding": "2"
  },
  {
    "stop_id": "1087N",
    "stop_code": "",
    "stop_name": "Pueyrredon",
    "stop_desc": "",
    "stop_lat": "-34.604613170616",
    "stop_lon": "-58.405234068657",
    "zone_id": "4",
    "stop_url": "",
    "location_type": "0",
    "parent_station": "1087",
    "wheelchair_boarding": "2"
  },
  {
    "stop_id": "1087S",
    "stop_code": "",
    "stop_name": "Pueyrredon",
    "stop_desc": "",
    "stop_lat": "-34.604613170616",
    "stop_lon": "-58.405234068657",
    "zone_id": "4",
    "stop_url": "",
    "location_type": "0",
    "parent_station": "1087",
    "wheelchair_boarding": "2"
  },
  {
    "stop_id": "1088N",
    "stop_code": "",
    "stop_name": "Pasteur",
    "stop_desc": "",
    "stop_lat": "-34.604623105662",
    "stop_lon": "-58.399357348627",
    "zone_id": "4",
    "stop_url": "",
    "location_type": "0",
    "parent_station": "1088",
    "wheelchair_boarding": "2"
  },
  {
    "stop_id": "1088S",
    "stop_code": "",
    "stop_name": "Pasteur",
    "stop_desc": "",
    "stop_lat": "-34.604623105662",
    "stop_lon": "-58.399357348627",
    "zone_id": "4",
    "stop_url": "",
    "location_type": "0",
    "parent_station": "1088",
    "wheelchair_boarding": "2"
  },
  {
    "stop_id": "1089N",
    "stop_code": "",
    "stop_name": "Callao",
    "stop_desc": "",
    "stop_lat": "-34.604457527748",
    "stop_lon": "-58.392845615810",
    "zone_id": "4",
    "stop_url": "",
    "location_type": "0",
    "parent_station": "1089",
    "wheelchair_boarding": "1"
  },
  {
    "stop_id": "1089S",
    "stop_code": "",
    "stop_name": "Callao",
    "stop_desc": "",
    "stop_lat": "-34.604457527748",
    "stop_lon": "-58.392845615810",
    "zone_id": "4",
    "stop_url": "",
    "location_type": "0",
    "parent_station": "1089",
    "wheelchair_boarding": "1"
  },
  {
    "stop_id": "1090N",
    "stop_code": "",
    "stop_name": "Uruguay",
    "stop_desc": "",
    "stop_lat": "-34.604046341872",
    "stop_lon": "-58.387106358997",
    "zone_id": "4",
    "stop_url": "",
    "location_type": "0",
    "parent_station": "1090",
    "wheelchair_boarding": "1"
  },
  {
    "stop_id": "1090S",
    "stop_code": "",
    "stop_name": "Uruguay",
    "stop_desc": "",
    "stop_lat": "-34.604046341872",
    "stop_lon": "-58.387106358997",
    "zone_id": "4",
    "stop_url": "",
    "location_type": "0",
    "parent_station": "1090",
    "wheelchair_boarding": "1"
  },
  {
    "stop_id": "1091N",
    "stop_code": "",
    "stop_name": "Carlos Pellegrini",
    "stop_desc": "",
    "stop_lat": "-34.603701386103",
    "stop_lon": "-58.381378501576",
    "zone_id": "4",
    "stop_url": "",
    "location_type": "0",
    "parent_station": "1091",
    "wheelchair_boarding": "2"
  },
  {
    "stop_id": "1091S",
    "stop_code": "",
    "stop_name": "Carlos Pellegrini",
    "stop_desc": "",
    "stop_lat": "-34.603701386103",
    "stop_lon": "-58.381378501576",
    "zone_id": "4",
    "stop_url": "",
    "location_type": "0",
    "parent_station": "1091",
    "wheelchair_boarding": "2"
  },
  {
    "stop_id": "1092N",
    "stop_code": "",
    "stop_name": "Florida",
    "stop_desc": "",
    "stop_lat": "-34.603301786393",
    "stop_lon": "-58.374534845324",
    "zone_id": "4",
    "stop_url": "",
    "location_type": "0",
    "parent_station": "1092",
    "wheelchair_boarding": "2"
  },
  {
    "stop_id": "1092S",
    "stop_code": "",
    "stop_name": "Florida",
    "stop_desc": "",
    "stop_lat": "-34.603301786393",
    "stop_lon": "-58.374534845324",
    "zone_id": "4",
    "stop_url": "",
    "location_type": "0",
    "parent_station": "1092",
    "wheelchair_boarding": "2"
  },
  {
    "stop_id": "1093N",
    "stop_code": "",
    "stop_name": "Leandro N. Alem",
    "stop_desc": "",
    "stop_lat": "-34.602967313448",
    "stop_lon": "-58.369956314500",
    "zone_id": "4",
    "stop_url": "",
    "location_type": "0",
    "parent_station": "1093",
    "wheelchair_boarding": "2"
  },
  {
    "stop_id": "1093S",
    "stop_code": "",
    "stop_name": "Leandro N. Alem",
    "stop_desc": "",
    "stop_lat": "-34.602967313448",
    "stop_lon": "-58.369956314500",
    "zone_id": "4",
    "stop_url": "",
    "location_type": "0",
    "parent_station": "1093",
    "wheelchair_boarding": "2"
  },
  {
    "stop_id": "1094E",
    "stop_code": "",
    "stop_name": "Constitucion",
    "stop_desc": "",
    "stop_lat": "-34.627276542920",
    "stop_lon": "-58.381431475198",
    "zone_id": "4",
    "stop_url": "",
    "location_type": "0",
    "parent_station": "1094",
    "wheelchair_boarding": "1"
  },
  {
    "stop_id": "1094O",
    "stop_code": "",
    "stop_name": "Constitucion",
    "stop_desc": "",
    "stop_lat": "-34.627276542920",
    "stop_lon": "-58.381431475198",
    "zone_id": "4",
    "stop_url": "",
    "location_type": "0",
    "parent_station": "1094",
    "wheelchair_boarding": "1"
  },
  {
    "stop_id": "1095E",
    "stop_code": "",
    "stop_name": "San Juan",
    "stop_desc": "",
    "stop_lat": "-34.622676270600",
    "stop_lon": "-58.379951566484",
    "zone_id": "4",
    "stop_url": "",
    "location_type": "0",
    "parent_station": "1095",
    "wheelchair_boarding": "2"
  },
  {
    "stop_id": "1095O",
    "stop_code": "",
    "stop_name": "San Juan",
    "stop_desc": "",
    "stop_lat": "-34.622676270600",
    "stop_lon": "-58.379951566484",
    "zone_id": "4",
    "stop_url": "",
    "location_type": "0",
    "parent_station": "1095",
    "wheelchair_boarding": "2"
  },
  {
    "stop_id": "1096E",
    "stop_code": "",
    "stop_name": "Independencia",
    "stop_desc": "",
    "stop_lat": "-34.618060292427",
    "stop_lon": "-58.380236216020",
    "zone_id": "4",
    "stop_url": "",
    "location_type": "0",
    "parent_station": "1096",
    "wheelchair_boarding": "2"
  },
  {
    "stop_id": "1096O",
    "stop_code": "",
    "stop_name": "Independencia",
    "stop_desc": "",
    "stop_lat": "-34.618060292427",
    "stop_lon": "-58.380236216020",
    "zone_id": "4",
    "stop_url": "",
    "location_type": "0",
    "parent_station": "1096",
    "wheelchair_boarding": "2"
  },
  {
    "stop_id": "1097E",
    "stop_code": "",
    "stop_name": "Moreno",
    "stop_desc": "",
    "stop_lat": "-34.612434686061",
    "stop_lon": "-58.380517847867",
    "zone_id": "4",
    "stop_url": "",
    "location_type": "0",
    "parent_station": "1097",
    "wheelchair_boarding": "2"
  },
  {
    "stop_id": "1097O",
    "stop_code": "",
    "stop_name": "Moreno",
    "stop_desc": "",
    "stop_lat": "-34.612434686061",
    "stop_lon": "-58.380517847867",
    "zone_id": "4",
    "stop_url": "",
    "location_type": "0",
    "parent_station": "1097",
    "wheelchair_boarding": "2"
  },
  {
    "stop_id": "1098E",
    "stop_code": "",
    "stop_name": "Avenida de Mayo",
    "stop_desc": "",
    "stop_lat": "-34.608990925758",
    "stop_lon": "-58.380681462661",
    "zone_id": "4",
    "stop_url": "",
    "location_type": "0",
    "parent_station": "1098",
    "wheelchair_boarding": "2"
  },
  {
    "stop_id": "1098O",
    "stop_code": "",
    "stop_name": "Avenida de Mayo",
    "stop_desc": "",
    "stop_lat": "-34.608990925758",
    "stop_lon": "-58.380681462661",
    "zone_id": "4",
    "stop_url": "",
    "location_type": "0",
    "parent_station": "1098",
    "wheelchair_boarding": "2"
  },
  {
    "stop_id": "1099E",
    "stop_code": "",
    "stop_name": "Diagonal Norte",
    "stop_desc": "",
    "stop_lat": "-34.604795306773",
    "stop_lon": "-58.379235416539",
    "zone_id": "4",
    "stop_url": "",
    "location_type": "0",
    "parent_station": "1099",
    "wheelchair_boarding": "1"
  },
  {
    "stop_id": "1099O",
    "stop_code": "",
    "stop_name": "Diagonal Norte",
    "stop_desc": "",
    "stop_lat": "-34.604795306773",
    "stop_lon": "-58.379235416539",
    "zone_id": "4",
    "stop_url": "",
    "location_type": "0",
    "parent_station": "1099",
    "wheelchair_boarding": "1"
  },
  {
    "stop_id": "1100E",
    "stop_code": "",
    "stop_name": "Lavalle",
    "stop_desc": "",
    "stop_lat": "-34.601776224270",
    "stop_lon": "-58.378115594396",
    "zone_id": "4",
    "stop_url": "",
    "location_type": "0",
    "parent_station": "1100",
    "wheelchair_boarding": "2"
  },
  {
    "stop_id": "1100O",
    "stop_code": "",
    "stop_name": "Lavalle",
    "stop_desc": "",
    "stop_lat": "-34.601776224270",
    "stop_lon": "-58.378115594396",
    "zone_id": "4",
    "stop_url": "",
    "location_type": "0",
    "parent_station": "1100",
    "wheelchair_boarding": "2"
  },
  {
    "stop_id": "1101E",
    "stop_code": "",
    "stop_name": "General San Martin",
    "stop_desc": "",
    "stop_lat": "-34.594872221186",
    "stop_lon": "-58.377256616835",
    "zone_id": "4",
    "stop_url": "",
    "location_type": "0",
    "parent_station": "1101",
    "wheelchair_boarding": "2"
  },
  {
    "stop_id": "1101O",
    "stop_code": "",
    "stop_name": "General San Martin",
    "stop_desc": "",
    "stop_lat": "-34.594872221186",
    "stop_lon": "-58.377256616835",
    "zone_id": "4",
    "stop_url": "",
    "location_type": "0",
    "parent_station": "1101",
    "wheelchair_boarding": "2"
  },
  {
    "stop_id": "1102E",
    "stop_code": "",
    "stop_name": "Retiro",
    "stop_desc": "",
    "stop_lat": "-34.591873756182",
    "stop_lon": "-58.374748081035",
    "zone_id": "4",
    "stop_url": "",
    "location_type": "0",
    "parent_station": "1102",
    "wheelchair_boarding": "1"
  },
  {
    "stop_id": "1102O",
    "stop_code": "",
    "stop_name": "Retiro",
    "stop_desc": "",
    "stop_lat": "-34.591873756182",
    "stop_lon": "-58.374748081035",
    "zone_id": "4",
    "stop_url": "",
    "location_type": "0",
    "parent_station": "1102",
    "wheelchair_boarding": "1"
  },
  {
    "stop_id": "1103N",
    "stop_code": "",
    "stop_name": "Congreso de Tucuman",
    "stop_desc": "",
    "stop_lat": "-34.555987572378",
    "stop_lon": "-58.462078124285",
    "zone_id": "4",
    "stop_url": "",
    "location_type": "0",
    "parent_station": "1103",
    "wheelchair_boarding": "1"
  },
  {
    "stop_id": "1103S",
    "stop_code": "",
    "stop_name": "Congreso de Tucuman",
    "stop_desc": "",
    "stop_lat": "-34.555987572378",
    "stop_lon": "-58.462078124285",
    "zone_id": "4",
    "stop_url": "",
    "location_type": "0",
    "parent_station": "1103",
    "wheelchair_boarding": "1"
  },
  {
    "stop_id": "1104N",
    "stop_code": "",
    "stop_name": "Juramento",
    "stop_desc": "",
    "stop_lat": "-34.562410402122",
    "stop_lon": "-58.456280529496",
    "zone_id": "4",
    "stop_url": "",
    "location_type": "0",
    "parent_station": "1104",
    "wheelchair_boarding": "1"
  },
  {
    "stop_id": "1104S",
    "stop_code": "",
    "stop_name": "Juramento",
    "stop_desc": "",
    "stop_lat": "-34.562410402122",
    "stop_lon": "-58.456280529496",
    "zone_id": "4",
    "stop_url": "",
    "location_type": "0",
    "parent_station": "1104",
    "wheelchair_boarding": "1"
  },
  {
    "stop_id": "1105N",
    "stop_code": "",
    "stop_name": "Jose Hernandez",
    "stop_desc": "",
    "stop_lat": "-34.566267592324",
    "stop_lon": "-58.451968878529",
    "zone_id": "4",
    "stop_url": "",
    "location_type": "0",
    "parent_station": "1105",
    "wheelchair_boarding": "1"
  },
  {
    "stop_id": "1105S",
    "stop_code": "",
    "stop_name": "Jose Hernandez",
    "stop_desc": "",
    "stop_lat": "-34.566267592324",
    "stop_lon": "-58.451968878529",
    "zone_id": "4",
    "stop_url": "",
    "location_type": "0",
    "parent_station": "1105",
    "wheelchair_boarding": "1"
  },
  {
    "stop_id": "1106N",
    "stop_code": "",
    "stop_name": "Olleros",
    "stop_desc": "",
    "stop_lat": "-34.570246506058",
    "stop_lon": "-58.444336652709",
    "zone_id": "4",
    "stop_url": "",
    "location_type": "0",
    "parent_station": "1106",
    "wheelchair_boarding": "1"
  },
  {
    "stop_id": "1106S",
    "stop_code": "",
    "stop_name": "Olleros",
    "stop_desc": "",
    "stop_lat": "-34.570246506058",
    "stop_lon": "-58.444336652709",
    "zone_id": "4",
    "stop_url": "",
    "location_type": "0",
    "parent_station": "1106",
    "wheelchair_boarding": "1"
  },
  {
    "stop_id": "1107N",
    "stop_code": "",
    "stop_name": "Ministro Carranza",
    "stop_desc": "",
    "stop_lat": "-34.575205802166",
    "stop_lon": "-58.434726297831",
    "zone_id": "4",
    "stop_url": "",
    "location_type": "0",
    "parent_station": "1107",
    "wheelchair_boarding": "2"
  },
  {
    "stop_id": "1107S",
    "stop_code": "",
    "stop_name": "Ministro Carranza",
    "stop_desc": "",
    "stop_lat": "-34.575205802166",
    "stop_lon": "-58.434726297831",
    "zone_id": "4",
    "stop_url": "",
    "location_type": "0",
    "parent_station": "1107",
    "wheelchair_boarding": "2"
  },
  {
    "stop_id": "1108N",
    "stop_code": "",
    "stop_name": "Palermo",
    "stop_desc": "",
    "stop_lat": "-34.578413560940",
    "stop_lon": "-58.425869643601",
    "zone_id": "4",
    "stop_url": "",
    "location_type": "0",
    "parent_station": "1108",
    "wheelchair_boarding": "2"
  },
  {
    "stop_id": "1108S",
    "stop_code": "",
    "stop_name": "Palermo",
    "stop_desc": "",
    "stop_lat": "-34.578413560940",
    "stop_lon": "-58.425869643601",
    "zone_id": "4",
    "stop_url": "",
    "location_type": "0",
    "parent_station": "1108",
    "wheelchair_boarding": "2"
  },
  {
    "stop_id": "1109N",
    "stop_code": "",
    "stop_name": "Plaza Italia",
    "stop_desc": "",
    "stop_lat": "-34.581660946057",
    "stop_lon": "-58.420978635617",
    "zone_id": "4",
    "stop_url": "",
    "location_type": "0",
    "parent_station": "1109",
    "wheelchair_boarding": "2"
  },
  {
    "stop_id": "1109S",
    "stop_code": "",
    "stop_name": "Plaza Italia",
    "stop_desc": "",
    "stop_lat": "-34.581660946057",
    "stop_lon": "-58.420978635617",
    "zone_id": "4",
    "stop_url": "",
    "location_type": "0",
    "parent_station": "1109",
    "wheelchair_boarding": "2"
  },
  {
    "stop_id": "1110N",
    "stop_code": "",
    "stop_name": "Scalabrini Ortiz",
    "stop_desc": "",
    "stop_lat": "-34.585185336263",
    "stop_lon": "-58.415824770871",
    "zone_id": "4",
    "stop_url": "",
    "location_type": "0",
    "parent_station": "1110",
    "wheelchair_boarding": "2"
  },
  {
    "stop_id": "1110S",
    "stop_code": "",
    "stop_name": "Scalabrini Ortiz",
    "stop_desc": "",
    "stop_lat": "-34.585185336263",
    "stop_lon": "-58.415824770871",
    "zone_id": "4",
    "stop_url": "",
    "location_type": "0",
    "parent_station": "1110",
    "wheelchair_boarding": "2"
  },
  {
    "stop_id": "1111N",
    "stop_code": "",
    "stop_name": "Bulnes",
    "stop_desc": "",
    "stop_lat": "-34.588258565847",
    "stop_lon": "-58.411264344992",
    "zone_id": "4",
    "stop_url": "",
    "location_type": "0",
    "parent_station": "1111",
    "wheelchair_boarding": "2"
  },
  {
    "stop_id": "1111S",
    "stop_code": "",
    "stop_name": "Bulnes",
    "stop_desc": "",
    "stop_lat": "-34.588258565847",
    "stop_lon": "-58.411264344992",
    "zone_id": "4",
    "stop_url": "",
    "location_type": "0",
    "parent_station": "1111",
    "wheelchair_boarding": "2"
  },
  {
    "stop_id": "1112N",
    "stop_code": "",
    "stop_name": "Ag端ero",
    "stop_desc": "",
    "stop_lat": "-34.591698218136",
    "stop_lon": "-58.407092839478",
    "zone_id": "4",
    "stop_url": "",
    "location_type": "0",
    "parent_station": "1112",
    "wheelchair_boarding": "2"
  },
  {
    "stop_id": "1112S",
    "stop_code": "",
    "stop_name": "Ag端ero",
    "stop_desc": "",
    "stop_lat": "-34.591698218136",
    "stop_lon": "-58.407092839478",
    "zone_id": "4",
    "stop_url": "",
    "location_type": "0",
    "parent_station": "1112",
    "wheelchair_boarding": "2"
  },
  {
    "stop_id": "1113N",
    "stop_code": "",
    "stop_name": "Pueyrredon",
    "stop_desc": "",
    "stop_lat": "-34.594988137797",
    "stop_lon": "-58.403226435199",
    "zone_id": "4",
    "stop_url": "",
    "location_type": "0",
    "parent_station": "1113",
    "wheelchair_boarding": "2"
  },
  {
    "stop_id": "1113S",
    "stop_code": "",
    "stop_name": "Pueyrredon",
    "stop_desc": "",
    "stop_lat": "-34.594988137797",
    "stop_lon": "-58.403226435199",
    "zone_id": "4",
    "stop_url": "",
    "location_type": "0",
    "parent_station": "1113",
    "wheelchair_boarding": "2"
  },
  {
    "stop_id": "1114N",
    "stop_code": "",
    "stop_name": "Facultad de Medicina",
    "stop_desc": "",
    "stop_lat": "-34.599719656814",
    "stop_lon": "-58.397433534301",
    "zone_id": "4",
    "stop_url": "",
    "location_type": "0",
    "parent_station": "1114",
    "wheelchair_boarding": "1"
  },
  {
    "stop_id": "1114S",
    "stop_code": "",
    "stop_name": "Facultad de Medicina",
    "stop_desc": "",
    "stop_lat": "-34.599719656814",
    "stop_lon": "-58.397433534301",
    "zone_id": "4",
    "stop_url": "",
    "location_type": "0",
    "parent_station": "1114",
    "wheelchair_boarding": "1"
  },
  {
    "stop_id": "1115N",
    "stop_code": "",
    "stop_name": "Callao",
    "stop_desc": "",
    "stop_lat": "-34.599602641978",
    "stop_lon": "-58.392240107111",
    "zone_id": "4",
    "stop_url": "",
    "location_type": "0",
    "parent_station": "1115",
    "wheelchair_boarding": "2"
  },
  {
    "stop_id": "1115S",
    "stop_code": "",
    "stop_name": "Callao",
    "stop_desc": "",
    "stop_lat": "-34.599602641978",
    "stop_lon": "-58.392240107111",
    "zone_id": "4",
    "stop_url": "",
    "location_type": "0",
    "parent_station": "1115",
    "wheelchair_boarding": "1"
  },
  {
    "stop_id": "1116N",
    "stop_code": "",
    "stop_name": "Tribunales",
    "stop_desc": "",
    "stop_lat": "-34.601770705188",
    "stop_lon": "-58.384459018730",
    "zone_id": "4",
    "stop_url": "",
    "location_type": "0",
    "parent_station": "1116",
    "wheelchair_boarding": "1"
  },
  {
    "stop_id": "1116S",
    "stop_code": "",
    "stop_name": "Tribunales",
    "stop_desc": "",
    "stop_lat": "-34.601770705188",
    "stop_lon": "-58.384459018730",
    "zone_id": "4",
    "stop_url": "",
    "location_type": "0",
    "parent_station": "1116",
    "wheelchair_boarding": "1"
  },
  {
    "stop_id": "1117N",
    "stop_code": "",
    "stop_name": "9 de Julio",
    "stop_desc": "",
    "stop_lat": "-34.604348245572",
    "stop_lon": "-58.380351886286",
    "zone_id": "4",
    "stop_url": "",
    "location_type": "0",
    "parent_station": "1117",
    "wheelchair_boarding": "1"
  },
  {
    "stop_id": "1117S",
    "stop_code": "",
    "stop_name": "9 de Julio",
    "stop_desc": "",
    "stop_lat": "-34.604348245572",
    "stop_lon": "-58.380351886286",
    "zone_id": "4",
    "stop_url": "",
    "location_type": "0",
    "parent_station": "1117",
    "wheelchair_boarding": "2"
  },
  {
    "stop_id": "1118N",
    "stop_code": "",
    "stop_name": "Catedral",
    "stop_desc": "",
    "stop_lat": "-34.607624420959",
    "stop_lon": "-58.374257236745",
    "zone_id": "4",
    "stop_url": "",
    "location_type": "0",
    "parent_station": "1118",
    "wheelchair_boarding": "1"
  },
  {
    "stop_id": "1118S",
    "stop_code": "",
    "stop_name": "Catedral",
    "stop_desc": "",
    "stop_lat": "-34.607624420959",
    "stop_lon": "-58.374257236745",
    "zone_id": "4",
    "stop_url": "",
    "location_type": "0",
    "parent_station": "1118",
    "wheelchair_boarding": "1"
  },
  {
    "stop_id": "1119N",
    "stop_code": "",
    "stop_name": "Bolivar",
    "stop_desc": "",
    "stop_lat": "-34.609575380822",
    "stop_lon": "-58.374049365518",
    "zone_id": "4",
    "stop_url": "",
    "location_type": "0",
    "parent_station": "1119",
    "wheelchair_boarding": "2"
  },
  {
    "stop_id": "1119S",
    "stop_code": "",
    "stop_name": "Bolivar",
    "stop_desc": "",
    "stop_lat": "-34.609575380822",
    "stop_lon": "-58.374049365518",
    "zone_id": "4",
    "stop_url": "",
    "location_type": "0",
    "parent_station": "1119",
    "wheelchair_boarding": "2"
  },
  {
    "stop_id": "1120N",
    "stop_code": "",
    "stop_name": "Belgrano",
    "stop_desc": "",
    "stop_lat": "-34.613410392420",
    "stop_lon": "-58.378220200429",
    "zone_id": "4",
    "stop_url": "",
    "location_type": "0",
    "parent_station": "1120",
    "wheelchair_boarding": "2"
  },
  {
    "stop_id": "1120S",
    "stop_code": "",
    "stop_name": "Belgrano",
    "stop_desc": "",
    "stop_lat": "-34.613410392420",
    "stop_lon": "-58.378220200429",
    "zone_id": "4",
    "stop_url": "",
    "location_type": "0",
    "parent_station": "1120",
    "wheelchair_boarding": "2"
  },
  {
    "stop_id": "1121N",
    "stop_code": "",
    "stop_name": "Independencia",
    "stop_desc": "",
    "stop_lat": "-34.618001797393",
    "stop_lon": "-58.380904421063",
    "zone_id": "4",
    "stop_url": "",
    "location_type": "0",
    "parent_station": "1121",
    "wheelchair_boarding": "2"
  },
  {
    "stop_id": "1121S",
    "stop_code": "",
    "stop_name": "Independencia",
    "stop_desc": "",
    "stop_lat": "-34.618001797393",
    "stop_lon": "-58.380904421063",
    "zone_id": "4",
    "stop_url": "",
    "location_type": "0",
    "parent_station": "1121",
    "wheelchair_boarding": "2"
  },
  {
    "stop_id": "1122N",
    "stop_code": "",
    "stop_name": "San Jose",
    "stop_desc": "",
    "stop_lat": "-34.622367261066",
    "stop_lon": "-58.385392427497",
    "zone_id": "4",
    "stop_url": "",
    "location_type": "0",
    "parent_station": "1122",
    "wheelchair_boarding": "2"
  },
  {
    "stop_id": "1122S",
    "stop_code": "",
    "stop_name": "San Jose",
    "stop_desc": "",
    "stop_lat": "-34.622367261066",
    "stop_lon": "-58.385392427497",
    "zone_id": "4",
    "stop_url": "",
    "location_type": "0",
    "parent_station": "1122",
    "wheelchair_boarding": "2"
  },
  {
    "stop_id": "1123N",
    "stop_code": "",
    "stop_name": "Entre Rios",
    "stop_desc": "",
    "stop_lat": "-34.622759595691",
    "stop_lon": "-58.391514569428",
    "zone_id": "4",
    "stop_url": "",
    "location_type": "0",
    "parent_station": "1123",
    "wheelchair_boarding": "2"
  },
  {
    "stop_id": "1123S",
    "stop_code": "",
    "stop_name": "Entre Rios",
    "stop_desc": "",
    "stop_lat": "-34.622759595691",
    "stop_lon": "-58.391514569428",
    "zone_id": "4",
    "stop_url": "",
    "location_type": "0",
    "parent_station": "1123",
    "wheelchair_boarding": "2"
  },
  {
    "stop_id": "1124N",
    "stop_code": "",
    "stop_name": "Pichincha",
    "stop_desc": "",
    "stop_lat": "-34.623133717895",
    "stop_lon": "-58.397111669159",
    "zone_id": "4",
    "stop_url": "",
    "location_type": "0",
    "parent_station": "1124",
    "wheelchair_boarding": "2"
  },
  {
    "stop_id": "1124S",
    "stop_code": "",
    "stop_name": "Pichincha",
    "stop_desc": "",
    "stop_lat": "-34.623133717895",
    "stop_lon": "-58.397111669159",
    "zone_id": "4",
    "stop_url": "",
    "location_type": "0",
    "parent_station": "1124",
    "wheelchair_boarding": "2"
  },
  {
    "stop_id": "1125N",
    "stop_code": "",
    "stop_name": "Jujuy",
    "stop_desc": "",
    "stop_lat": "-34.623878647026",
    "stop_lon": "-58.402829468279",
    "zone_id": "4",
    "stop_url": "",
    "location_type": "0",
    "parent_station": "1125",
    "wheelchair_boarding": "2"
  },
  {
    "stop_id": "1125S",
    "stop_code": "",
    "stop_name": "Jujuy",
    "stop_desc": "",
    "stop_lat": "-34.623878647026",
    "stop_lon": "-58.402829468279",
    "zone_id": "4",
    "stop_url": "",
    "location_type": "0",
    "parent_station": "1125",
    "wheelchair_boarding": "2"
  },
  {
    "stop_id": "1126N",
    "stop_code": "",
    "stop_name": "General Urquiza",
    "stop_desc": "",
    "stop_lat": "-34.624681784582",
    "stop_lon": "-58.409617468688",
    "zone_id": "4",
    "stop_url": "",
    "location_type": "0",
    "parent_station": "1126",
    "wheelchair_boarding": "2"
  },
  {
    "stop_id": "1126S",
    "stop_code": "",
    "stop_name": "General Urquiza",
    "stop_desc": "",
    "stop_lat": "-34.624681784582",
    "stop_lon": "-58.409617468688",
    "zone_id": "4",
    "stop_url": "",
    "location_type": "0",
    "parent_station": "1126",
    "wheelchair_boarding": "2"
  },
  {
    "stop_id": "1127N",
    "stop_code": "",
    "stop_name": "Boedo",
    "stop_desc": "",
    "stop_lat": "-34.625545058485",
    "stop_lon": "-58.416628092456",
    "zone_id": "4",
    "stop_url": "",
    "location_type": "0",
    "parent_station": "1127",
    "wheelchair_boarding": "2"
  },
  {
    "stop_id": "1127S",
    "stop_code": "",
    "stop_name": "Boedo",
    "stop_desc": "",
    "stop_lat": "-34.625545058485",
    "stop_lon": "-58.416628092456",
    "zone_id": "4",
    "stop_url": "",
    "location_type": "0",
    "parent_station": "1127",
    "wheelchair_boarding": "2"
  },
  {
    "stop_id": "1128N",
    "stop_code": "",
    "stop_name": "La Plata",
    "stop_desc": "",
    "stop_lat": "-34.626836228126",
    "stop_lon": "-58.425610810552",
    "zone_id": "4",
    "stop_url": "",
    "location_type": "0",
    "parent_station": "1128",
    "wheelchair_boarding": "2"
  },
  {
    "stop_id": "1128S",
    "stop_code": "",
    "stop_name": "La Plata",
    "stop_desc": "",
    "stop_lat": "-34.626836228126",
    "stop_lon": "-58.425610810552",
    "zone_id": "4",
    "stop_url": "",
    "location_type": "0",
    "parent_station": "1128",
    "wheelchair_boarding": "2"
  },
  {
    "stop_id": "1129N",
    "stop_code": "",
    "stop_name": "Jose Maria Moreno",
    "stop_desc": "",
    "stop_lat": "-34.628084339372",
    "stop_lon": "-58.434297814982",
    "zone_id": "4",
    "stop_url": "",
    "location_type": "0",
    "parent_station": "1129",
    "wheelchair_boarding": "2"
  },
  {
    "stop_id": "1129S",
    "stop_code": "",
    "stop_name": "Jose Maria Moreno",
    "stop_desc": "",
    "stop_lat": "-34.628084339372",
    "stop_lon": "-58.434297814982",
    "zone_id": "4",
    "stop_url": "",
    "location_type": "0",
    "parent_station": "1129",
    "wheelchair_boarding": "2"
  },
  {
    "stop_id": "1130N",
    "stop_code": "",
    "stop_name": "Emilio Mitre",
    "stop_desc": "",
    "stop_lat": "-34.631632139071",
    "stop_lon": "-58.442524820568",
    "zone_id": "4",
    "stop_url": "",
    "location_type": "0",
    "parent_station": "1130",
    "wheelchair_boarding": "2"
  },
  {
    "stop_id": "1130S",
    "stop_code": "",
    "stop_name": "Emilio Mitre",
    "stop_desc": "",
    "stop_lat": "-34.631632139071",
    "stop_lon": "-58.442524820568",
    "zone_id": "4",
    "stop_url": "",
    "location_type": "0",
    "parent_station": "1130",
    "wheelchair_boarding": "2"
  },
  {
    "stop_id": "1131N",
    "stop_code": "",
    "stop_name": "Medalla Milagrosa",
    "stop_desc": "",
    "stop_lat": "-34.636250121811",
    "stop_lon": "-58.450398445176",
    "zone_id": "4",
    "stop_url": "",
    "location_type": "0",
    "parent_station": "1131",
    "wheelchair_boarding": "2"
  },
  {
    "stop_id": "1131S",
    "stop_code": "",
    "stop_name": "Medalla Milagrosa",
    "stop_desc": "",
    "stop_lat": "-34.636250121811",
    "stop_lon": "-58.450398445176",
    "zone_id": "4",
    "stop_url": "",
    "location_type": "0",
    "parent_station": "1131",
    "wheelchair_boarding": "2"
  },
  {
    "stop_id": "1132N",
    "stop_code": "",
    "stop_name": "Varela",
    "stop_desc": "",
    "stop_lat": "-34.639566964307",
    "stop_lon": "-58.457848280500",
    "zone_id": "4",
    "stop_url": "",
    "location_type": "0",
    "parent_station": "1132",
    "wheelchair_boarding": "2"
  },
  {
    "stop_id": "1132S",
    "stop_code": "",
    "stop_name": "Varela",
    "stop_desc": "",
    "stop_lat": "-34.639566964307",
    "stop_lon": "-58.457848280500",
    "zone_id": "4",
    "stop_url": "",
    "location_type": "0",
    "parent_station": "1132",
    "wheelchair_boarding": "2"
  },
  {
    "stop_id": "1133N",
    "stop_code": "",
    "stop_name": "Plaza de los Virreyes",
    "stop_desc": "",
    "stop_lat": "-34.642770031936",
    "stop_lon": "-58.461445122984",
    "zone_id": "4",
    "stop_url": "",
    "location_type": "0",
    "parent_station": "1133",
    "wheelchair_boarding": "2"
  },
  {
    "stop_id": "1133S",
    "stop_code": "",
    "stop_name": "Plaza de los Virreyes",
    "stop_desc": "",
    "stop_lat": "-34.642770031936",
    "stop_lon": "-58.461445122984",
    "zone_id": "4",
    "stop_url": "",
    "location_type": "0",
    "parent_station": "1133",
    "wheelchair_boarding": "2"
  },
  {
    "stop_id": "1134E",
    "stop_code": "",
    "stop_name": "Hospitales",
    "stop_desc": "",
    "stop_lat": "-34.641752739715",
    "stop_lon": "-58.412673175271",
    "zone_id": "4",
    "stop_url": "",
    "location_type": "0",
    "parent_station": "1134",
    "wheelchair_boarding": "1"
  },
  {
    "stop_id": "1134O",
    "stop_code": "",
    "stop_name": "Hospitales",
    "stop_desc": "",
    "stop_lat": "-34.641752739715",
    "stop_lon": "-58.412673175271",
    "zone_id": "4",
    "stop_url": "",
    "location_type": "0",
    "parent_station": "1134",
    "wheelchair_boarding": "1"
  },
  {
    "stop_id": "1135E",
    "stop_code": "",
    "stop_name": "Parque Patricios",
    "stop_desc": "",
    "stop_lat": "-34.638460262593",
    "stop_lon": "-58.406328409852",
    "zone_id": "4",
    "stop_url": "",
    "location_type": "0",
    "parent_station": "1135",
    "wheelchair_boarding": "1"
  },
  {
    "stop_id": "1135O",
    "stop_code": "",
    "stop_name": "Parque Patricios",
    "stop_desc": "",
    "stop_lat": "-34.638460262593",
    "stop_lon": "-58.406328409852",
    "zone_id": "4",
    "stop_url": "",
    "location_type": "0",
    "parent_station": "1135",
    "wheelchair_boarding": "1"
  },
  {
    "stop_id": "1136E",
    "stop_code": "",
    "stop_name": "Caseros",
    "stop_desc": "",
    "stop_lat": "-34.635265854589",
    "stop_lon": "-58.399158865153",
    "zone_id": "4",
    "stop_url": "",
    "location_type": "0",
    "parent_station": "1136",
    "wheelchair_boarding": "1"
  },
  {
    "stop_id": "1136O",
    "stop_code": "",
    "stop_name": "Caseros",
    "stop_desc": "",
    "stop_lat": "-34.635265854589",
    "stop_lon": "-58.399158865153",
    "zone_id": "4",
    "stop_url": "",
    "location_type": "0",
    "parent_station": "1136",
    "wheelchair_boarding": "1"
  },
  {
    "stop_id": "1137E",
    "stop_code": "",
    "stop_name": "Inclan",
    "stop_desc": "",
    "stop_lat": "-34.629351188776",
    "stop_lon": "-58.400986790654",
    "zone_id": "4",
    "stop_url": "",
    "location_type": "0",
    "parent_station": "1137",
    "wheelchair_boarding": "1"
  },
  {
    "stop_id": "1137O",
    "stop_code": "",
    "stop_name": "Inclan",
    "stop_desc": "",
    "stop_lat": "-34.629351188776",
    "stop_lon": "-58.400986790654",
    "zone_id": "4",
    "stop_url": "",
    "location_type": "0",
    "parent_station": "1137",
    "wheelchair_boarding": "1"
  },
  {
    "stop_id": "1138E",
    "stop_code": "",
    "stop_name": "Humberto 1",
    "stop_desc": "",
    "stop_lat": "-34.623116366744",
    "stop_lon": "-58.402322201144",
    "zone_id": "4",
    "stop_url": "",
    "location_type": "0",
    "parent_station": "1138",
    "wheelchair_boarding": "1"
  },
  {
    "stop_id": "1138O",
    "stop_code": "",
    "stop_name": "Humberto 1",
    "stop_desc": "",
    "stop_lat": "-34.623116366744",
    "stop_lon": "-58.402322201144",
    "zone_id": "4",
    "stop_url": "",
    "location_type": "0",
    "parent_station": "1138",
    "wheelchair_boarding": "1"
  },
  {
    "stop_id": "1139E",
    "stop_code": "",
    "stop_name": "Venezuela",
    "stop_desc": "",
    "stop_lat": "-34.615227118506",
    "stop_lon": "-58.404758647205",
    "zone_id": "4",
    "stop_url": "",
    "location_type": "0",
    "parent_station": "1139",
    "wheelchair_boarding": "1"
  },
  {
    "stop_id": "1139O",
    "stop_code": "",
    "stop_name": "Venezuela",
    "stop_desc": "",
    "stop_lat": "-34.615227118506",
    "stop_lon": "-58.404758647205",
    "zone_id": "4",
    "stop_url": "",
    "location_type": "0",
    "parent_station": "1139",
    "wheelchair_boarding": "1"
  },
  {
    "stop_id": "1140E",
    "stop_code": "",
    "stop_name": "Once",
    "stop_desc": "",
    "stop_lat": "-34.609147664305",
    "stop_lon": "-58.406046778011",
    "zone_id": "4",
    "stop_url": "",
    "location_type": "0",
    "parent_station": "1140",
    "wheelchair_boarding": "1"
  },
  {
    "stop_id": "1140O",
    "stop_code": "",
    "stop_name": "Once",
    "stop_desc": "",
    "stop_lat": "-34.609147664305",
    "stop_lon": "-58.406046778011",
    "zone_id": "4",
    "stop_url": "",
    "location_type": "0",
    "parent_station": "1140",
    "wheelchair_boarding": "1"
  },
  {
    "stop_id": "1141E",
    "stop_code": "",
    "stop_name": "Corrientes",
    "stop_desc": "",
    "stop_lat": "-34.603923811372",
    "stop_lon": "-58.405317217086",
    "zone_id": "4",
    "stop_url": "",
    "location_type": "0",
    "parent_station": "1141",
    "wheelchair_boarding": "1"
  },
  {
    "stop_id": "1141O",
    "stop_code": "",
    "stop_name": "Corrientes",
    "stop_desc": "",
    "stop_lat": "-34.603923811372",
    "stop_lon": "-58.405317217086",
    "zone_id": "4",
    "stop_url": "",
    "location_type": "0",
    "parent_station": "1141",
    "wheelchair_boarding": "1"
  },
  {
    "stop_id": "1142N",
    "stop_code": "",
    "stop_name": "Intendente Saguier",
    "stop_desc": "",
    "stop_lat": "-34.643258552263",
    "stop_lon": "-58.461524902887",
    "zone_id": "5",
    "stop_url": "",
    "location_type": "0",
    "parent_station": "1142",
    "wheelchair_boarding": ""
  },
  {
    "stop_id": "1142S",
    "stop_code": "",
    "stop_name": "Intendente Saguier",
    "stop_desc": "",
    "stop_lat": "-34.643258552263",
    "stop_lon": "-58.461524902887",
    "zone_id": "5",
    "stop_url": "",
    "location_type": "0",
    "parent_station": "1142",
    "wheelchair_boarding": ""
  },
  {
    "stop_id": "1143N",
    "stop_code": "",
    "stop_name": "Balbastro",
    "stop_desc": "",
    "stop_lat": "-34.649265520265",
    "stop_lon": "-58.455640019357",
    "zone_id": "5",
    "stop_url": "",
    "location_type": "0",
    "parent_station": "1143",
    "wheelchair_boarding": ""
  },
  {
    "stop_id": "1143S",
    "stop_code": "",
    "stop_name": "Balbastro",
    "stop_desc": "",
    "stop_lat": "-34.649265520265",
    "stop_lon": "-58.455640019357",
    "zone_id": "5",
    "stop_url": "",
    "location_type": "0",
    "parent_station": "1143",
    "wheelchair_boarding": ""
  },
  {
    "stop_id": "1144N",
    "stop_code": "",
    "stop_name": "Mariano Acosta",
    "stop_desc": "",
    "stop_lat": "-34.654438435230",
    "stop_lon": "-58.456492782087",
    "zone_id": "5",
    "stop_url": "",
    "location_type": "0",
    "parent_station": "1144",
    "wheelchair_boarding": ""
  },
  {
    "stop_id": "1144S",
    "stop_code": "",
    "stop_name": "Mariano Acosta",
    "stop_desc": "",
    "stop_lat": "-34.654438435230",
    "stop_lon": "-58.456492782087",
    "zone_id": "5",
    "stop_url": "",
    "location_type": "0",
    "parent_station": "1144",
    "wheelchair_boarding": ""
  },
  {
    "stop_id": "1145N",
    "stop_code": "",
    "stop_name": "Somellera",
    "stop_desc": "",
    "stop_lat": "-34.656449351476",
    "stop_lon": "-58.453907455721",
    "zone_id": "5",
    "stop_url": "",
    "location_type": "0",
    "parent_station": "1145",
    "wheelchair_boarding": ""
  },
  {
    "stop_id": "1145S",
    "stop_code": "",
    "stop_name": "Somellera",
    "stop_desc": "",
    "stop_lat": "-34.656449351476",
    "stop_lon": "-58.453907455721",
    "zone_id": "5",
    "stop_url": "",
    "location_type": "0",
    "parent_station": "1145",
    "wheelchair_boarding": ""
  },
  {
    "stop_id": "1146N",
    "stop_code": "",
    "stop_name": "Ana Maria Janer",
    "stop_desc": "",
    "stop_lat": "-34.659486340020",
    "stop_lon": "-58.450007979109",
    "zone_id": "5",
    "stop_url": "",
    "location_type": "0",
    "parent_station": "1146",
    "wheelchair_boarding": ""
  },
  {
    "stop_id": "1146S",
    "stop_code": "",
    "stop_name": "Ana Maria Janer",
    "stop_desc": "",
    "stop_lat": "-34.659486340020",
    "stop_lon": "-58.450007979109",
    "zone_id": "5",
    "stop_url": "",
    "location_type": "0",
    "parent_station": "1146",
    "wheelchair_boarding": ""
  },
  {
    "stop_id": "1147N",
    "stop_code": "",
    "stop_name": "Ntra. Sra. de Fatima",
    "stop_desc": "",
    "stop_lat": "-34.660447642203",
    "stop_lon": "-58.448783417607",
    "zone_id": "5",
    "stop_url": "",
    "location_type": "0",
    "parent_station": "1147",
    "wheelchair_boarding": ""
  },
  {
    "stop_id": "1147S",
    "stop_code": "",
    "stop_name": "Ntra. Sra. de Fatima",
    "stop_desc": "",
    "stop_lat": "-34.660447642203",
    "stop_lon": "-58.448783417607",
    "zone_id": "5",
    "stop_url": "",
    "location_type": "0",
    "parent_station": "1147",
    "wheelchair_boarding": ""
  },
  {
    "stop_id": "1148N",
    "stop_code": "",
    "stop_name": "Fernandez de la Cruz",
    "stop_desc": "",
    "stop_lat": "-34.662234999302",
    "stop_lon": "-58.446598243041",
    "zone_id": "5",
    "stop_url": "",
    "location_type": "0",
    "parent_station": "1148",
    "wheelchair_boarding": ""
  },
  {
    "stop_id": "1148S",
    "stop_code": "",
    "stop_name": "Fernandez de la Cruz",
    "stop_desc": "",
    "stop_lat": "-34.662234999302",
    "stop_lon": "-58.446598243041",
    "zone_id": "5",
    "stop_url": "",
    "location_type": "0",
    "parent_station": "1148",
    "wheelchair_boarding": ""
  },
  {
    "stop_id": "1149N",
    "stop_code": "",
    "stop_name": "Presidente Illia",
    "stop_desc": "",
    "stop_lat": "-34.665073164022",
    "stop_lon": "-58.448562240935",
    "zone_id": "5",
    "stop_url": "",
    "location_type": "0",
    "parent_station": "1149",
    "wheelchair_boarding": ""
  },
  {
    "stop_id": "1149S",
    "stop_code": "",
    "stop_name": "Presidente Illia",
    "stop_desc": "",
    "stop_lat": "-34.665275116459",
    "stop_lon": "-58.448497772341",
    "zone_id": "5",
    "stop_url": "",
    "location_type": "0",
    "parent_station": "1149",
    "wheelchair_boarding": ""
  },
  {
    "stop_id": "1150N",
    "stop_code": "",
    "stop_name": "Parque de la Ciudad",
    "stop_desc": "",
    "stop_lat": "-34.669865267294",
    "stop_lon": "-58.455109152349",
    "zone_id": "5",
    "stop_url": "",
    "location_type": "0",
    "parent_station": "1150",
    "wheelchair_boarding": ""
  },
  {
    "stop_id": "1150S",
    "stop_code": "",
    "stop_name": "Parque de la Ciudad",
    "stop_desc": "",
    "stop_lat": "-34.669865267294",
    "stop_lon": "-58.455109152349",
    "zone_id": "5",
    "stop_url": "",
    "location_type": "0",
    "parent_station": "1150",
    "wheelchair_boarding": ""
  },
  {
    "stop_id": "1151N",
    "stop_code": "",
    "stop_name": "Cecilia Grierson",
    "stop_desc": "",
    "stop_lat": "-34.672189284049",
    "stop_lon": "-58.457543347854",
    "zone_id": "5",
    "stop_url": "",
    "location_type": "0",
    "parent_station": "1151",
    "wheelchair_boarding": ""
  },
  {
    "stop_id": "1151S",
    "stop_code": "",
    "stop_name": "Cecilia Grierson",
    "stop_desc": "",
    "stop_lat": "-34.672189284049",
    "stop_lon": "-58.457543347854",
    "zone_id": "5",
    "stop_url": "",
    "location_type": "0",
    "parent_station": "1151",
    "wheelchair_boarding": ""
  },
  {
    "stop_id": "1152N",
    "stop_code": "",
    "stop_name": "Escalada",
    "stop_desc": "",
    "stop_lat": "-34.674558787808",
    "stop_lon": "-58.460167171717",
    "zone_id": "5",
    "stop_url": "",
    "location_type": "0",
    "parent_station": "1152",
    "wheelchair_boarding": ""
  },
  {
    "stop_id": "1152S",
    "stop_code": "",
    "stop_name": "Escalada",
    "stop_desc": "",
    "stop_lat": "-34.674558787808",
    "stop_lon": "-58.460167171717",
    "zone_id": "5",
    "stop_url": "",
    "location_type": "0",
    "parent_station": "1152",
    "wheelchair_boarding": ""
  },
  {
    "stop_id": "1153N",
    "stop_code": "",
    "stop_name": "Pola",
    "stop_desc": "",
    "stop_lat": "-34.678110629633",
    "stop_lon": "-58.464412206378",
    "zone_id": "5",
    "stop_url": "",
    "location_type": "0",
    "parent_station": "1153",
    "wheelchair_boarding": ""
  },
  {
    "stop_id": "1153S",
    "stop_code": "",
    "stop_name": "Pola",
    "stop_desc": "",
    "stop_lat": "-34.678110629633",
    "stop_lon": "-58.464412206378",
    "zone_id": "5",
    "stop_url": "",
    "location_type": "0",
    "parent_station": "1153",
    "wheelchair_boarding": ""
  },
  {
    "stop_id": "1154N",
    "stop_code": "",
    "stop_name": "Ana Diaz",
    "stop_desc": "",
    "stop_lat": "-34.680577977821",
    "stop_lon": "-58.466877924815",
    "zone_id": "5",
    "stop_url": "",
    "location_type": "0",
    "parent_station": "1154",
    "wheelchair_boarding": ""
  },
  {
    "stop_id": "1154S",
    "stop_code": "",
    "stop_name": "Ana Diaz",
    "stop_desc": "",
    "stop_lat": "-34.680577977821",
    "stop_lon": "-58.466877924815",
    "zone_id": "5",
    "stop_url": "",
    "location_type": "0",
    "parent_station": "1154",
    "wheelchair_boarding": ""
  },
  {
    "stop_id": "1155N",
    "stop_code": "",
    "stop_name": "Centro Civico",
    "stop_desc": "",
    "stop_lat": "-34.683539244591",
    "stop_lon": "-58.465152180426",
    "zone_id": "5",
    "stop_url": "",
    "location_type": "0",
    "parent_station": "1155",
    "wheelchair_boarding": ""
  },
  {
    "stop_id": "1155S",
    "stop_code": "",
    "stop_name": "Centro Civico",
    "stop_desc": "",
    "stop_lat": "-34.683539244591",
    "stop_lon": "-58.465152180426",
    "zone_id": "5",
    "stop_url": "",
    "location_type": "0",
    "parent_station": "1155",
    "wheelchair_boarding": ""
  },
  {
    "stop_id": "1156N",
    "stop_code": "",
    "stop_name": "Larrazabal",
    "stop_desc": "",
    "stop_lat": "-34.680602280154",
    "stop_lon": "-58.465343409012",
    "zone_id": "5",
    "stop_url": "",
    "location_type": "0",
    "parent_station": "1156",
    "wheelchair_boarding": ""
  },
  {
    "stop_id": "1156S",
    "stop_code": "",
    "stop_name": "Larrazabal",
    "stop_desc": "",
    "stop_lat": "-34.680602280154",
    "stop_lon": "-58.465343409012",
    "zone_id": "5",
    "stop_url": "",
    "location_type": "0",
    "parent_station": "1156",
    "wheelchair_boarding": ""
  },
  {
    "stop_id": "1157N",
    "stop_code": "",
    "stop_name": "Nicolas Descalzi",
    "stop_desc": "",
    "stop_lat": "-34.682798871351",
    "stop_lon": "-58.462343924707",
    "zone_id": "5",
    "stop_url": "",
    "location_type": "0",
    "parent_station": "1157",
    "wheelchair_boarding": ""
  },
  {
    "stop_id": "1157S",
    "stop_code": "",
    "stop_name": "Nicolas Descalzi",
    "stop_desc": "",
    "stop_lat": "-34.682798871351",
    "stop_lon": "-58.462343924707",
    "zone_id": "5",
    "stop_url": "",
    "location_type": "0",
    "parent_station": "1157",
    "wheelchair_boarding": ""
  },
  {
    "stop_id": "1158N",
    "stop_code": "",
    "stop_name": "Gabino Ezeiza",
    "stop_desc": "",
    "stop_lat": "-34.685968042754",
    "stop_lon": "-58.458103459038",
    "zone_id": "5",
    "stop_url": "",
    "location_type": "0",
    "parent_station": "1158",
    "wheelchair_boarding": ""
  },
  {
    "stop_id": "1158S",
    "stop_code": "",
    "stop_name": "Gabino Ezeiza",
    "stop_desc": "",
    "stop_lat": "-34.685968042754",
    "stop_lon": "-58.458103459038",
    "zone_id": "5",
    "stop_url": "",
    "location_type": "0",
    "parent_station": "1158",
    "wheelchair_boarding": ""
  },
  {
    "stop_id": "1159N",
    "stop_code": "",
    "stop_name": "General Savio",
    "stop_desc": "",
    "stop_lat": "-34.689597318341",
    "stop_lon": "-58.460816625841",
    "zone_id": "5",
    "stop_url": "",
    "location_type": "0",
    "parent_station": "1159",
    "wheelchair_boarding": ""
  },
  {
    "stop_id": "1159S",
    "stop_code": "",
    "stop_name": "General Savio",
    "stop_desc": "",
    "stop_lat": "-34.689597318341",
    "stop_lon": "-58.460816625841",
    "zone_id": "5",
    "stop_url": "",
    "location_type": "0",
    "parent_station": "1159",
    "wheelchair_boarding": ""
  },
  {
    "stop_id": "1160E",
    "stop_code": "",
    "stop_name": "Cordoba",
    "stop_desc": "",
    "stop_lat": "-34.598686142195",
    "stop_lon": "-58.403805105041",
    "zone_id": "4",
    "stop_url": "",
    "location_type": "0",
    "parent_station": "1160",
    "wheelchair_boarding": "1"
  },
  {
    "stop_id": "1160O",
    "stop_code": "",
    "stop_name": "Cordoba",
    "stop_desc": "",
    "stop_lat": "-34.598686142195",
    "stop_lon": "-58.403805105041",
    "zone_id": "4",
    "stop_url": "",
    "location_type": "0",
    "parent_station": "1160",
    "wheelchair_boarding": "1"
  },
  {
    "stop_id": "1161E",
    "stop_code": "",
    "stop_name": "Santa Fe",
    "stop_desc": "",
    "stop_lat": "-34.594856588906",
    "stop_lon": "-58.402459654070",
    "zone_id": "4",
    "stop_url": "",
    "location_type": "0",
    "parent_station": "1161",
    "wheelchair_boarding": "1"
  },
  {
    "stop_id": "1161O",
    "stop_code": "",
    "stop_name": "Santa Fe",
    "stop_desc": "",
    "stop_lat": "-34.594856588906",
    "stop_lon": "-58.402459654070",
    "zone_id": "4",
    "stop_url": "",
    "location_type": "0",
    "parent_station": "1161",
    "wheelchair_boarding": "1"
  },
  {
    "stop_id": "1162E",
    "stop_code": "",
    "stop_name": "Las Heras",
    "stop_desc": "",
    "stop_lat": "-34.588062575386",
    "stop_lon": "-58.39804479425",
    "zone_id": "4",
    "stop_url": "",
    "location_type": "0",
    "parent_station": "1162",
    "wheelchair_boarding": "1"
  },
  {
    "stop_id": "1162O",
    "stop_code": "",
    "stop_name": "Las Heras",
    "stop_desc": "",
    "stop_lat": "-34.588062575386",
    "stop_lon": "-58.39804479425",
    "zone_id": "4",
    "stop_url": "",
    "location_type": "0",
    "parent_station": "1162",
    "wheelchair_boarding": "1"
  },
  {
    "stop_id": "1163E",
    "stop_code": "",
    "stop_name": "Facultad de Derecho",
    "stop_desc": "",
    "stop_lat": "-34.583194029760",
    "stop_lon": "-58.391207324196",
    "zone_id": "4",
    "stop_url": "",
    "location_type": "0",
    "parent_station": "1163",
    "wheelchair_boarding": "1"
  },
  {
    "stop_id": "1163O",
    "stop_code": "",
    "stop_name": "Facultad de Derecho",
    "stop_desc": "",
    "stop_lat": "-34.583194029760",
    "stop_lon": "-58.391207324196",
    "zone_id": "4",
    "stop_url": "",
    "location_type": "0",
    "parent_station": "1163",
    "wheelchair_boarding": "1"
  }
]
